source_timestamp,destination_timestamp,x,y,z,roll,pitch,yaw
0001547131010502217,0001547131010439714,0.002247,-0.002776,-0.002083,-0.000437,-0.000208,0.000094
0001547131010564720,0001547131010502217,0.000650,-0.000198,0.001056,0.000098,0.000026,-0.000024
0001547131010627225,0001547131010564720,0.000478,0.000112,0.000122,0.000013,-0.000040,-0.000009
0001547131010689727,0001547131010627225,-0.000007,-0.000037,-0.000028,0.000014,-0.000032,0.000016
0001547131010752254,0001547131010689727,0.000258,-0.000311,0.000096,0.000093,-0.000041,0.000022
0001547131010814734,0001547131010752254,0.000032,-0.000040,0.000022,0.000007,0.000001,-0.000000
0001547131010877237,0001547131010814734,-0.000432,-0.000044,-0.000371,0.000058,-0.000076,0.000030
0001547131010939741,0001547131010877237,0.000002,0.000001,-0.000001,0.000008,-0.000001,0.000000
0001547131011002245,0001547131010939741,0.000031,-0.000021,-0.000220,-0.000043,-0.000085,0.000017
0001547131011064732,0001547131011002245,0.000030,0.000007,0.000010,-0.000001,-0.000001,-0.000007
0001547131011127218,0001547131011064732,-0.000019,-0.000022,-0.000148,0.000010,-0.000064,0.000002
0001547131011189721,0001547131011127218,-0.000036,-0.000016,-0.000014,0.000008,0.000001,0.000007
0001547131011252225,0001547131011189721,0.000209,-0.000015,0.000031,0.000040,-0.000027,-0.000011
0001547131011314728,0001547131011252225,-0.000058,0.000011,-0.000024,0.000002,-0.000002,-0.000002
0001547131011377232,0001547131011314728,0.000177,-0.000007,0.000077,0.000012,-0.000010,-0.000000
0001547131011439736,0001547131011377232,-0.000015,-0.000027,-0.000008,-0.000014,-0.000000,0.000003
0001547131011502238,0001547131011439736,0.000195,0.000027,0.000059,0.000015,-0.000014,-0.000010
0001547131011564743,0001547131011502238,0.000019,-0.000007,0.000011,-0.000000,-0.000000,-0.000009
0001547131011627246,0001547131011564743,0.000066,0.000049,0.000013,0.000049,-0.000006,0.000001
0001547131011689749,0001547131011627246,0.000032,-0.000021,-0.000000,0.000002,-0.000003,-0.000000
0001547131011752252,0001547131011689749,0.000031,-0.000013,-0.000011,-0.000005,-0.000018,0.000002
0001547131011814755,0001547131011752252,0.000012,-0.000035,0.000009,-0.000015,-0.000000,-0.000007
0001547131011877259,0001547131011814755,0.000088,0.000007,0.000034,0.000015,0.000001,0.000005
0001547131011939763,0001547131011877259,-0.000026,-0.000001,-0.000005,0.000008,0.000005,0.000010
0001547131012002266,0001547131011939763,-0.000033,0.000021,-0.000027,0.000022,-0.000014,-0.000002
0001547131012064769,0001547131012002266,-0.000078,-0.000006,-0.000040,-0.000002,-0.000008,-0.000003
0001547131012127272,0001547131012064769,-0.000016,-0.000004,-0.000008,-0.000006,-0.000002,-0.000001
0001547131012189743,0001547131012127272,0.000031,0.000012,0.000017,0.000011,0.000006,-0.000001
0001547131012252246,0001547131012189743,-0.000037,-0.000013,-0.000010,-0.000004,0.000002,0.000003
0001547131012314750,0001547131012252246,0.000044,0.000015,0.000005,0.000005,-0.000004,-0.000007
0001547131012377253,0001547131012314750,-0.000001,-0.000001,-0.000003,0.000001,-0.000004,-0.000003
0001547131012439757,0001547131012377253,0.000000,-0.000000,-0.000000,-0.000000,-0.000000,0.000000
0001547131012502260,0001547131012439757,0.000033,0.000016,0.000014,0.000011,0.000002,-0.000000
0001547131012564763,0001547131012502260,-0.000019,-0.000002,-0.000000,-0.000006,0.000002,-0.000004
0001547131012627267,0001547131012564763,-0.000008,-0.000003,-0.000003,0.000002,0.000002,-0.000002
0001547131012689770,0001547131012627267,-0.000018,-0.000017,-0.000013,-0.000009,-0.000008,0.000007
0001547131012752274,0001547131012689770,-0.000010,0.000002,-0.000009,0.000008,-0.000007,-0.000002
0001547131012814777,0001547131012752274,0.000037,0.000007,0.000015,0.000008,0.000004,-0.000003
0001547131012877281,0001547131012814777,0.000054,0.000027,0.000016,-0.000002,0.000004,-0.000004
0001547131012939784,0001547131012877281,-0.000038,0.000004,-0.000014,-0.000004,-0.000001,0.000002
0001547131013002287,0001547131012939784,0.000025,0.000002,0.000004,0.000010,-0.000006,-0.000001
0001547131013064791,0001547131013002287,0.000035,0.000007,0.000004,0.000003,-0.000002,-0.000001
0001547131013127294,0001547131013064791,-0.000054,-0.000010,-0.000018,0.000001,0.000000,0.000001
0001547131013189797,0001547131013127294,0.000047,0.000020,0.000031,0.000004,0.000007,-0.000001
0001547131013252301,0001547131013189797,-0.000040,-0.000014,-0.000022,0.000001,-0.000003,0.000001
0001547131013314773,0001547131013252301,-0.000027,0.000024,-0.000021,0.000009,-0.000003,-0.000006
0001547131013377276,0001547131013314773,0.000022,-0.000006,0.000006,0.000000,-0.000000,-0.000001
0001547131013439780,0001547131013377276,0.000028,0.000018,0.000003,-0.000003,-0.000001,0.000007
0001547131013502283,0001547131013439780,-0.000049,-0.000027,-0.000020,0.000005,0.000003,-0.000001
0001547131013564786,0001547131013502283,-0.000000,-0.000000,-0.000000,0.000000,-0.000000,0.000000
0001547131013627290,0001547131013564786,0.000009,-0.000034,-0.000001,-0.000016,-0.000001,0.000003
0001547131013689793,0001547131013627290,0.000049,0.000023,0.000011,0.000005,0.000000,0.000000
0001547131013752296,0001547131013689793,0.000068,0.000003,0.000031,0.000002,0.000002,-0.000003
0001547131013814800,0001547131013752296,0.000034,0.000010,0.000011,0.000013,-0.000002,-0.000003
0001547131013877303,0001547131013814800,0.000004,-0.000014,-0.000007,-0.000004,-0.000000,-0.000001
0001547131013939807,0001547131013877303,0.000187,-0.000007,0.000078,-0.000005,0.000001,0.000008
0001547131014002311,0001547131013939807,-0.000015,-0.000007,-0.000009,0.000006,-0.000005,-0.000001
0001547131014064814,0001547131014002311,-0.000041,-0.000010,-0.000016,-0.000012,-0.000001,0.000002
0001547131014127317,0001547131014064814,-0.000044,0.000011,-0.000016,0.000005,-0.000001,-0.000003
0001547131014189820,0001547131014127317,-0.000007,0.000010,0.000002,0.000002,-0.000001,-0.000004
0001547131014252324,0001547131014189820,-0.000024,-0.000012,-0.000009,-0.000001,-0.000003,-0.000001
0001547131014314827,0001547131014252324,0.000023,-0.000012,-0.000004,-0.000002,-0.000001,-0.000002
0001547131014377331,0001547131014314827,0.000031,0.000010,0.000013,0.000004,0.000001,-0.000002
0001547131014439834,0001547131014377331,0.000012,0.000018,0.000011,-0.000001,0.000006,0.000002
0001547131014502304,0001547131014439834,-0.000025,-0.000032,-0.000005,0.000004,-0.000001,0.000000
0001547131014564808,0001547131014502304,-0.000004,0.000019,0.000001,-0.000001,0.000002,-0.000003
0001547131014627312,0001547131014564808,0.000003,-0.000001,0.000002,-0.000006,-0.000000,-0.000000
0001547131014689814,0001547131014627312,-0.000065,-0.000015,-0.000025,0.000001,-0.000001,0.000008
0001547131014752318,0001547131014689814,-0.000059,-0.000010,-0.000001,-0.000004,0.000005,-0.000000
0001547131014814821,0001547131014752318,-0.000042,-0.000002,-0.000014,0.000002,-0.000004,-0.000000
0001547131014877325,0001547131014814821,0.000017,0.000009,0.000006,0.000003,-0.000001,-0.000007
0001547131014939828,0001547131014877325,-0.000001,-0.000000,-0.000001,-0.000006,0.000001,-0.000002
0001547131015002341,0001547131014939828,0.000057,0.000063,0.000027,0.000003,0.000003,-0.000006
0001547131015064835,0001547131015002341,0.000061,0.000011,0.000023,0.000005,-0.000002,-0.000008
0001547131015127339,0001547131015064835,0.000031,0.000007,0.000012,0.000008,0.000003,0.000007
0001547131015189842,0001547131015127339,-0.000018,-0.000017,-0.000020,-0.000007,-0.000003,0.000002
0001547131015252346,0001547131015189842,0.000005,0.000010,0.000001,0.000006,-0.000002,-0.000001
0001547131015314849,0001547131015252346,-0.000021,0.000002,-0.000013,-0.000002,0.000001,-0.000004
0001547131015377353,0001547131015314849,0.000044,-0.000021,0.000016,-0.000005,0.000002,0.000006
0001547131015439856,0001547131015377353,0.000000,-0.000000,0.000000,0.000000,0.000000,-0.000000
0001547131015502359,0001547131015439856,-0.000034,0.000002,-0.000013,-0.000002,0.000001,0.000003
0001547131015564863,0001547131015502359,0.000031,0.000002,0.000017,-0.000003,0.000001,-0.000004
0001547131015627332,0001547131015564863,0.000018,0.000008,0.000005,-0.000009,-0.000000,-0.000003
0001547131015689836,0001547131015627332,-0.000025,-0.000015,-0.000002,-0.000000,0.000001,0.000004
0001547131015752340,0001547131015689836,0.000003,0.000006,-0.000001,-0.000005,0.000000,0.000000
0001547131015814843,0001547131015752340,-0.000016,-0.000009,-0.000005,-0.000006,-0.000002,0.000002
0001547131015877347,0001547131015814843,-0.000065,0.000002,-0.000027,0.000000,-0.000000,-0.000001
0001547131015939850,0001547131015877347,0.000042,-0.000006,0.000013,0.000002,-0.000000,0.000002
0001547131016002353,0001547131015939850,-0.000006,-0.000003,0.000000,0.000001,-0.000001,0.000003
0001547131016064857,0001547131016002353,0.000021,-0.000002,0.000012,-0.000008,0.000000,-0.000000
0001547131016127360,0001547131016064857,0.000042,0.000018,0.000015,0.000004,0.000003,0.000000
0001547131016189864,0001547131016127360,-0.000004,0.000007,0.000001,0.000004,0.000001,-0.000002
0001547131016252367,0001547131016189864,-0.000011,-0.000006,-0.000005,0.000002,-0.000001,0.000003
0001547131016314871,0001547131016252367,0.000054,0.000017,0.000020,0.000006,0.000002,-0.000002
0001547131016377374,0001547131016314871,-0.000050,-0.000003,-0.000016,0.000007,0.000000,-0.000005
0001547131016439880,0001547131016377374,0.000071,0.000029,0.000022,-0.000002,-0.000004,0.000002
0001547131016502381,0001547131016439880,0.000035,0.000032,0.000013,-0.000001,-0.000001,-0.000005
0001547131016564884,0001547131016502381,0.000012,0.000019,0.000001,0.000001,-0.000003,-0.000010
0001547131016627387,0001547131016564884,-0.000009,-0.000013,-0.000009,-0.000013,0.000001,-0.000001
0001547131016689891,0001547131016627387,0.000052,-0.000025,0.000024,0.000004,0.000004,0.000003
0001547131016752363,0001547131016689891,0.000099,-0.000032,0.000042,0.000002,0.000000,0.000001
0001547131016814865,0001547131016752363,-0.000012,-0.000002,-0.000004,0.000006,0.000000,-0.000003
0001547131016877369,0001547131016814865,-0.000105,0.000013,-0.000059,0.000004,-0.000006,-0.000012
0001547131016939873,0001547131016877369,0.000112,0.000033,0.000042,0.000006,0.000001,-0.000003
0001547131017002376,0001547131016939873,-0.000032,-0.000004,-0.000013,-0.000005,0.000001,-0.000001
0001547131017064879,0001547131017002376,-0.000048,0.000006,-0.000019,-0.000006,-0.000003,-0.000002
0001547131017127383,0001547131017064879,0.000056,0.000008,0.000019,-0.000005,-0.000001,-0.000000
0001547131017189886,0001547131017127383,0.000033,-0.000001,0.000007,0.000006,0.000002,0.000002
0001547131017252390,0001547131017189886,-0.000005,0.000005,-0.000004,0.000006,-0.000000,0.000000
0001547131017314892,0001547131017252390,-0.000019,0.000018,-0.000008,0.000009,0.000005,-0.000006
0001547131017377396,0001547131017314892,-0.000054,0.000023,-0.000021,0.000009,-0.000001,0.000003
0001547131017439900,0001547131017377396,-0.000002,-0.000001,-0.000001,0.000002,0.000000,-0.000001
0001547131017502404,0001547131017439900,0.000013,-0.000008,0.000007,-0.000004,0.000002,-0.000001
0001547131017564907,0001547131017502404,-0.000104,0.000004,-0.000046,-0.000003,-0.000007,-0.000003
0001547131017627411,0001547131017564907,0.000050,-0.000008,0.000017,-0.000010,-0.000001,-0.000002
0001547131017689913,0001547131017627411,-0.000014,-0.000002,-0.000002,0.000006,0.000005,-0.000003
0001547131017752417,0001547131017689913,0.000074,0.000001,0.000032,0.000002,0.000003,0.000000
0001547131017814920,0001547131017752417,-0.000091,0.000021,-0.000026,-0.000004,-0.000001,-0.000006
0001547131017877392,0001547131017814920,0.000047,-0.000013,0.000007,-0.000003,0.000001,-0.000002
0001547131017939894,0001547131017877392,0.000009,0.000001,0.000008,0.000004,-0.000006,0.000003
0001547131018002399,0001547131017939894,0.000055,-0.000013,0.000017,-0.000010,-0.000002,-0.000001
0001547131018064901,0001547131018002399,0.000022,0.000031,0.000006,-0.000002,0.000001,-0.000009
0001547131018127405,0001547131018064901,-0.000014,0.000019,-0.000011,0.000007,-0.000005,-0.000005
0001547131018189907,0001547131018127405,-0.000053,0.000008,-0.000016,-0.000002,-0.000001,0.000002
0001547131018252411,0001547131018189907,0.000019,0.000012,0.000005,0.000015,-0.000002,0.000003
0001547131018314915,0001547131018252411,-0.000005,0.000003,-0.000003,0.000006,0.000001,-0.000004
0001547131018377418,0001547131018314915,-0.000009,0.000009,-0.000013,0.000005,-0.000000,-0.000006
0001547131018439924,0001547131018377418,0.000014,-0.000012,0.000009,0.000003,0.000001,0.000004
0001547131018502424,0001547131018439924,0.000007,-0.000001,0.000003,-0.000013,-0.000001,-0.000003
0001547131018564928,0001547131018502424,0.000075,0.000022,0.000024,-0.000002,0.000001,-0.000006
0001547131018627431,0001547131018564928,-0.000000,0.000000,-0.000000,0.000000,0.000000,-0.000000
0001547131018689935,0001547131018627431,0.000330,-0.000127,0.000128,-0.000018,0.000004,0.000019
0001547131018752440,0001547131018689935,-0.000008,-0.000014,0.000014,-0.000004,-0.000001,0.000000
0001547131018814942,0001547131018752440,0.000028,0.000013,0.000014,-0.000004,-0.000006,-0.000010
0001547131018877446,0001547131018814942,-0.000086,-0.000012,-0.000054,0.000006,-0.000004,0.000002
0001547131018939948,0001547131018877446,-0.000026,0.000019,-0.000013,0.000003,-0.000001,0.000002
0001547131019002421,0001547131018939948,0.000004,-0.000001,0.000003,-0.000012,0.000001,0.000005
0001547131019064923,0001547131019002421,-0.000055,0.000020,-0.000021,-0.000003,0.000002,-0.000010
0001547131019127426,0001547131019064923,0.000001,0.000001,0.000001,-0.000010,0.000002,-0.000001
0001547131019189930,0001547131019127426,0.000001,0.000000,-0.000001,0.000002,-0.000001,0.000003
0001547131019252433,0001547131019189930,-0.000008,-0.000006,-0.000001,0.000001,0.000003,0.000004
0001547131019314936,0001547131019252433,0.000030,-0.000005,0.000021,0.000006,0.000004,-0.000003
0001547131019377440,0001547131019314936,0.000043,0.000013,0.000018,-0.000003,0.000002,0.000001
0001547131019439943,0001547131019377440,-0.000009,-0.000000,-0.000005,-0.000003,-0.000001,0.000002
0001547131019502446,0001547131019439943,-0.000087,-0.000027,-0.000029,-0.000005,-0.000001,0.000007
0001547131019564950,0001547131019502446,0.000088,0.000026,0.000024,0.000002,-0.000001,-0.000008
0001547131019627454,0001547131019564950,-0.000033,-0.000001,-0.000005,0.000006,0.000004,-0.000003
0001547131019689956,0001547131019627454,-0.000000,0.000000,-0.000002,0.000004,-0.000002,0.000002
0001547131019752461,0001547131019689956,0.000003,0.000002,-0.000001,-0.000004,-0.000002,-0.000000
0001547131019814963,0001547131019752461,-0.000085,0.000056,-0.000045,0.000033,-0.000014,-0.000009
0001547131019877467,0001547131019814963,-0.000002,-0.000001,-0.000001,0.000007,-0.000000,0.000000
0001547131019939970,0001547131019877467,0.000028,0.000002,0.000011,0.000005,-0.000002,0.000003
0001547131020002474,0001547131019939970,-0.000041,-0.000011,-0.000015,-0.000008,0.000001,0.000000
0001547131020064977,0001547131020002474,0.000048,0.000034,0.000006,0.000028,-0.000015,-0.000015
0001547131020127449,0001547131020064977,0.000009,-0.000005,0.000002,-0.000008,0.000000,0.000003
0001547131020189951,0001547131020127449,-0.000091,0.000005,-0.000044,-0.000011,0.000002,0.000007
0001547131020252456,0001547131020189951,-0.000020,-0.000005,-0.000001,0.000024,-0.000006,0.000005
0001547131020314959,0001547131020252456,0.000009,0.000001,-0.000001,-0.000006,-0.000002,-0.000002
0001547131020377462,0001547131020314959,-0.000057,0.000026,-0.000017,0.000000,-0.000001,0.000002
0001547131020439965,0001547131020377462,-0.000144,0.000039,-0.000048,0.000015,-0.000009,-0.000001
0001547131020502473,0001547131020439965,-0.000028,0.000004,-0.000012,0.000003,-0.000002,0.000003
0001547131020564973,0001547131020502473,0.000015,0.000003,0.000007,0.000003,-0.000002,-0.000002
0001547131020627476,0001547131020564973,-0.000012,0.000003,0.000005,-0.000003,0.000001,0.000002
0001547131020689979,0001547131020627476,-0.000000,0.000000,0.000000,0.000000,0.000000,-0.000000
0001547131020752482,0001547131020689979,0.000062,0.000022,0.000012,0.000006,-0.000003,-0.000000
0001547131020814986,0001547131020752482,0.000006,0.000000,-0.000003,0.000007,-0.000002,-0.000001
0001547131020877490,0001547131020814986,0.000015,-0.000014,0.000009,0.000002,0.000003,-0.000003
0001547131020939993,0001547131020877490,-0.000085,0.000001,-0.000027,0.000003,0.000005,0.000010
0001547131021002496,0001547131020939993,0.000023,-0.000017,-0.000007,-0.000006,0.000007,0.000007
0001547131021065000,0001547131021002496,0.000024,-0.000000,0.000000,0.000010,0.000010,-0.000012
0001547131021127503,0001547131021065000,-0.000044,0.000027,-0.000006,0.000011,0.000004,-0.000008
0001547131021189974,0001547131021127503,0.000079,-0.000002,0.000054,-0.000016,0.000015,0.000012
0001547131021252477,0001547131021189974,-0.000003,0.000014,0.000013,0.000008,0.000010,-0.000002
0001547131021314980,0001547131021252477,-0.000081,0.000041,-0.000032,0.000003,0.000002,-0.000010
0001547131021377487,0001547131021314980,-0.000045,-0.000013,-0.000015,-0.000007,-0.000000,-0.000001
0001547131021439987,0001547131021377487,0.000090,-0.000003,0.000054,0.000009,0.000009,0.000007
0001547131021502491,0001547131021439987,0.000002,-0.000002,-0.000002,0.000000,0.000004,0.000006
0001547131021564994,0001547131021502491,0.000072,0.000029,0.000023,-0.000001,0.000001,-0.000007
0001547131021627497,0001547131021564994,-0.000005,-0.000043,-0.000002,-0.000008,-0.000001,-0.000001
0001547131021690018,0001547131021627497,-0.000063,0.000009,-0.000025,-0.000003,-0.000001,0.000003
0001547131021752506,0001547131021690018,-0.000004,0.000007,-0.000000,-0.000006,0.000000,0.000003
0001547131021815008,0001547131021752506,0.000016,0.000009,0.000002,0.000013,-0.000002,-0.000007
0001547131021877511,0001547131021815008,-0.000008,-0.000007,-0.000006,-0.000010,-0.000001,0.000002
0001547131021940015,0001547131021877511,-0.000001,-0.000001,0.000000,-0.000007,-0.000001,-0.000000
0001547131022002518,0001547131021940015,0.000102,-0.000009,0.000032,0.000001,0.000001,0.000000
0001547131022065022,0001547131022002518,-0.000001,0.000001,0.000001,0.000005,0.000002,-0.000005
0001547131022127529,0001547131022065022,0.000020,0.000007,0.000010,-0.000003,-0.000001,-0.000002
0001547131022190028,0001547131022127529,-0.000003,-0.000001,-0.000001,0.000006,0.000001,0.000004
0001547131022252532,0001547131022190028,-0.000053,0.000027,-0.000020,0.000006,-0.000002,-0.000001
0001547131022315035,0001547131022252532,-0.000002,0.000000,0.000000,-0.000002,-0.000000,-0.000003
0001547131022377506,0001547131022315035,0.000036,-0.000012,0.000013,-0.000005,-0.000003,-0.000002
0001547131022440009,0001547131022377506,0.000019,-0.000008,0.000003,-0.000013,-0.000001,0.000004
0001547131022502514,0001547131022440009,0.000023,0.000004,0.000008,0.000003,-0.000001,0.000000
0001547131022565016,0001547131022502514,0.000005,0.000003,0.000001,0.000001,-0.000001,-0.000001
0001547131022627524,0001547131022565016,0.000028,0.000006,0.000011,0.000001,0.000001,-0.000001
0001547131022690022,0001547131022627524,-0.000004,0.000002,-0.000002,0.000007,0.000001,0.000002
0001547131022752526,0001547131022690022,0.000033,-0.000013,0.000008,0.000002,0.000000,0.000003
0001547131022815029,0001547131022752526,-0.000000,-0.000000,-0.000000,-0.000000,-0.000000,0.000000
0001547131022877533,0001547131022815029,-0.000061,0.000018,-0.000024,0.000007,-0.000001,-0.000004
0001547131022940036,0001547131022877533,0.000055,0.000030,0.000027,-0.000002,0.000001,-0.000002
0001547131023002539,0001547131022940036,-0.000008,0.000001,0.000001,0.000007,-0.000002,0.000001
0001547131023065044,0001547131023002539,0.000000,-0.000000,0.000000,0.000000,0.000000,0.000000
0001547131023127547,0001547131023065044,0.000004,0.000001,0.000002,0.000005,0.000002,-0.000005
0001547131023190051,0001547131023127547,-0.000041,0.000021,-0.000016,0.000002,-0.000000,-0.000001
0001547131023252553,0001547131023190051,0.000001,-0.000015,0.000003,-0.000013,0.000001,0.000004
0001547131023315056,0001547131023252553,-0.000019,-0.000013,-0.000019,-0.000004,-0.000004,-0.000004
0001547131023377560,0001547131023315056,-0.000036,0.000018,0.000003,-0.000004,0.000003,-0.000002
0001547131023440033,0001547131023377560,-0.000016,0.000004,-0.000007,-0.000001,-0.000001,0.000000
0001547131023502535,0001547131023440033,0.000173,-0.000017,0.000065,0.000001,0.000003,-0.000001
0001547131023565038,0001547131023502535,-0.000016,0.000009,-0.000007,0.000007,0.000001,-0.000003
0001547131023627542,0001547131023565038,0.000001,0.000001,0.000001,-0.000001,-0.000001,-0.000003
0001547131023690045,0001547131023627542,0.000000,0.000000,0.000000,0.000000,0.000000,-0.000000
0001547131023752549,0001547131023690045,0.000002,0.000002,0.000001,-0.000002,-0.000001,0.000002
0001547131023815052,0001547131023752549,0.000001,0.000002,-0.000000,0.000002,-0.000000,-0.000004
0001547131023877555,0001547131023815052,-0.000032,-0.000016,-0.000012,-0.000008,-0.000003,0.000004
0001547131023940059,0001547131023877555,-0.000025,-0.000018,-0.000008,0.000001,0.000000,0.000001
0001547131024002562,0001547131023940059,0.000011,0.000006,0.000012,-0.000000,0.000006,-0.000004
0001547131024065066,0001547131024002562,0.000015,0.000007,0.000005,0.000001,0.000001,-0.000001
0001547131024127569,0001547131024065066,0.000002,0.000003,-0.000000,-0.000000,-0.000000,-0.000003
0001547131024190072,0001547131024127569,-0.000000,0.000000,0.000000,-0.000007,-0.000002,0.000003
0001547131024252576,0001547131024190072,0.000006,-0.000002,-0.000000,-0.000007,-0.000002,-0.000000
0001547131024315079,0001547131024252576,0.000041,0.000025,0.000019,0.000004,0.000002,-0.000008
0001547131024377583,0001547131024315079,0.000005,0.000002,-0.000000,-0.000003,-0.000000,-0.000000
0001547131024440086,0001547131024377583,-0.000002,-0.000001,-0.000000,0.000001,-0.000000,0.000001
0001547131024502590,0001547131024440086,-0.000001,0.000001,0.000001,-0.000008,0.000001,-0.000001
0001547131024565060,0001547131024502590,0.000070,-0.000017,0.000018,0.000006,0.000000,0.000000
0001547131024627563,0001547131024565060,-0.000017,0.000009,-0.000005,-0.000007,-0.000003,0.000000
0001547131024690066,0001547131024627563,0.000033,0.000031,-0.000002,0.000006,-0.000003,-0.000001
0001547131024752570,0001547131024690066,0.000017,-0.000003,0.000002,0.000003,-0.000001,-0.000001
0001547131024815073,0001547131024752570,0.000121,0.000002,0.000042,0.000005,0.000000,0.000001
0001547131024877577,0001547131024815073,0.000004,0.000003,0.000002,0.000001,0.000004,-0.000004
0001547131024940081,0001547131024877577,0.000043,0.000008,0.000020,-0.000004,-0.000001,0.000002
0001547131025002585,0001547131024940081,0.000002,0.000001,0.000001,-0.000007,-0.000002,0.000003
0001547131025065088,0001547131025002585,0.000011,0.000002,0.000002,0.000000,-0.000004,-0.000005
0001547131025127591,0001547131025065088,-0.000008,0.000007,-0.000002,0.000002,0.000002,-0.000001
0001547131025190094,0001547131025127591,-0.000004,-0.000028,0.000001,-0.000006,0.000002,0.000010
0001547131025252598,0001547131025190094,-0.000036,-0.000016,-0.000009,-0.000010,-0.000001,-0.000001
0001547131025315101,0001547131025252598,0.000026,0.000025,0.000017,0.000010,-0.000002,-0.000004
0001547131025377604,0001547131025315101,0.000003,0.000002,-0.000001,-0.000003,0.000000,-0.000003
0001547131025440107,0001547131025377604,-0.000007,-0.000006,-0.000003,0.000004,-0.000002,0.000009
0001547131025502612,0001547131025440107,0.000205,-0.000032,0.000082,0.000012,0.000004,-0.000002
0001547131025565114,0001547131025502612,-0.000075,0.000011,-0.000029,-0.000008,-0.000002,-0.000002
0001547131025627618,0001547131025565114,0.000009,0.000011,0.000008,0.000005,0.000001,-0.000002
0001547131025690091,0001547131025627618,0.000007,0.000001,0.000007,-0.000003,0.000003,0.000004
0001547131025752592,0001547131025690091,0.000055,-0.000010,0.000018,-0.000004,-0.000001,0.000001
0001547131025815095,0001547131025752592,-0.000002,0.000003,0.000001,-0.000001,0.000001,-0.000007
0001547131025877598,0001547131025815095,0.000000,-0.000000,0.000000,0.000000,0.000000,-0.000000
0001547131025940103,0001547131025877598,0.000000,-0.000000,0.000000,-0.000000,0.000000,0.000000
0001547131026002606,0001547131025940103,-0.000002,0.000001,-0.000002,0.000001,-0.000003,0.000003
0001547131026065109,0001547131026002606,0.000011,-0.000006,0.000005,-0.000004,0.000002,-0.000000
0001547131026127612,0001547131026065109,-0.000024,-0.000014,-0.000009,0.000001,0.000001,-0.000000
0001547131026190115,0001547131026127612,0.000051,0.000019,0.000018,0.000001,0.000000,-0.000003
0001547131026252619,0001547131026190115,-0.000002,0.000021,-0.000004,0.000017,-0.000004,-0.000001
0001547131026315123,0001547131026252619,0.000002,-0.000000,0.000002,-0.000005,-0.000001,0.000001
0001547131026377626,0001547131026315123,0.000002,-0.000001,-0.000000,-0.000004,0.000000,-0.000005
0001547131026440129,0001547131026377626,0.000010,0.000003,0.000001,-0.000004,-0.000002,0.000004
0001547131026502633,0001547131026440129,-0.000008,-0.000015,-0.000002,-0.000007,0.000003,0.000004
0001547131026565136,0001547131026502633,0.000001,0.000005,0.000001,-0.000000,0.000001,-0.000003
0001547131026627640,0001547131026565136,0.000103,0.000031,0.000038,0.000001,0.000002,-0.000004
0001547131026690143,0001547131026627640,0.000000,-0.000003,-0.000001,0.000001,-0.000002,0.000002
0001547131026752615,0001547131026690143,0.000016,0.000012,0.000005,0.000005,0.000000,0.000003
0001547131026815117,0001547131026752615,-0.000066,0.000021,-0.000025,-0.000006,-0.000001,-0.000003
0001547131026877622,0001547131026815117,-0.000001,-0.000001,-0.000001,-0.000003,-0.000002,-0.000002
0001547131026940125,0001547131026877622,-0.000005,-0.000004,-0.000000,-0.000005,0.000000,0.000001
0001547131027002628,0001547131026940125,-0.000012,0.000010,-0.000005,-0.000001,0.000001,-0.000001
0001547131027065133,0001547131027002628,-0.000048,0.000025,-0.000018,0.000004,-0.000003,-0.000008
0001547131027127635,0001547131027065133,0.000004,0.000002,0.000001,-0.000006,-0.000002,-0.000001
0001547131027190138,0001547131027127635,0.000116,-0.000074,0.000038,0.000002,-0.000001,0.000010
0001547131027252642,0001547131027190138,-0.000042,0.000009,-0.000019,-0.000003,-0.000004,0.000001
0001547131027315145,0001547131027252642,-0.000088,-0.000008,-0.000031,-0.000010,0.000001,-0.000003
0001547131027377650,0001547131027315145,-0.000001,0.000008,0.000004,-0.000003,0.000002,-0.000001
0001547131027440151,0001547131027377650,-0.000036,-0.000012,-0.000007,-0.000008,-0.000000,0.000005
0001547131027502656,0001547131027440151,0.000084,-0.000003,0.000018,-0.000004,-0.000002,-0.000002
0001547131027565159,0001547131027502656,-0.000005,-0.000006,-0.000004,-0.000006,-0.000011,0.000005
0001547131027627662,0001547131027565159,0.000069,0.000002,0.000014,-0.000002,-0.000004,-0.000001
0001547131027690166,0001547131027627662,0.000071,0.000016,0.000033,0.000000,0.000007,-0.000002
0001547131027752669,0001547131027690166,0.000022,0.000003,0.000018,0.000005,0.000010,-0.000003
0001547131027815172,0001547131027752669,-0.000006,-0.000004,0.000004,-0.000005,0.000009,-0.000010
0001547131027877644,0001547131027815172,-0.000065,-0.000025,-0.000023,-0.000010,0.000000,-0.000001
0001547131027940146,0001547131027877644,0.000013,0.000003,-0.000007,0.000010,-0.000007,0.000006
0001547131028002650,0001547131027940146,-0.000015,0.000001,-0.000007,0.000005,-0.000005,-0.000003
0001547131028065153,0001547131028002650,-0.000002,0.000006,0.000009,-0.000007,0.000014,-0.000021
0001547131028127656,0001547131028065153,-0.000096,0.000006,0.000115,-0.000044,0.000152,-0.000017
0001547131028190160,0001547131028127656,0.000242,-0.000112,0.000259,-0.000079,0.000265,0.000011
0001547131028252663,0001547131028190160,0.001973,-0.000169,-0.000265,-0.000228,0.000172,0.000011
0001547131028315167,0001547131028252663,0.000107,-0.000135,0.000181,-0.000205,0.000185,0.000023
0001547131028377670,0001547131028315167,0.006205,0.000081,-0.000369,-0.000094,0.000083,-0.000023
0001547131028440173,0001547131028377670,0.000204,-0.000014,0.000074,-0.000048,0.000030,-0.000022
0001547131028502677,0001547131028440173,0.009155,0.000025,-0.000617,-0.000193,0.000002,-0.000023
0001547131028565180,0001547131028502677,0.010161,-0.000131,-0.001354,-0.000311,-0.000018,-0.000006
0001547131028627683,0001547131028565180,0.000257,-0.000187,0.000188,-0.000285,0.000076,0.000038
0001547131028690187,0001547131028627683,-0.000101,-0.000130,0.000267,-0.000311,0.000287,0.000033
0001547131028752690,0001547131028690187,0.000150,-0.000218,0.000630,-0.000444,0.000487,0.000042
0001547131028815194,0001547131028752690,0.023506,-0.000726,-0.001135,-0.000436,0.000607,0.000057
0001547131028877697,0001547131028815194,0.027190,-0.000598,-0.001522,-0.000479,0.000621,0.000210
0001547131028940201,0001547131028877697,-0.000560,-0.000485,0.000151,-0.000576,0.000370,0.000419
0001547131029002672,0001547131028940201,0.037010,-0.000458,-0.001671,-0.000473,0.000042,0.000246
0001547131029065175,0001547131029002672,0.042623,-0.000692,-0.001830,-0.000514,-0.000267,0.000232
0001547131029127678,0001547131029065175,0.048076,0.000033,-0.001859,-0.000527,-0.000323,0.000384
0001547131029190181,0001547131029127678,0.000775,-0.001199,-0.000080,-0.000570,-0.000115,0.000991
0001547131029252685,0001547131029190181,0.057784,0.000373,-0.003458,-0.000205,0.000318,0.001096
0001547131029315189,0001547131029252685,0.062141,0.001239,-0.003793,-0.000137,0.000452,0.001426
0001547131029377692,0001547131029315189,0.068295,0.002418,-0.004482,0.000165,0.000309,0.001756
0001547131029440196,0001547131029377692,0.071803,0.003310,-0.005445,0.000587,0.000271,0.001994
0001547131029502698,0001547131029440196,0.077051,0.004680,-0.005867,0.000879,0.000365,0.002073
0001547131029565202,0001547131029502698,0.084607,0.004211,-0.005153,0.000658,0.000450,0.002322
0001547131029627705,0001547131029565202,0.089998,0.004137,-0.004915,0.000523,0.000414,0.002489
0001547131029690209,0001547131029627705,0.096428,0.004263,-0.004792,0.000658,0.000281,0.002452
0001547131029752712,0001547131029690209,0.103062,0.004857,-0.005760,0.000870,0.000166,0.002545
0001547131029815215,0001547131029752712,0.110373,0.003992,-0.005374,0.000254,0.000380,0.002976
0001547131029877719,0001547131029815215,0.117011,0.003497,-0.006070,-0.000681,0.000554,0.003297
0001547131029940223,0001547131029877719,0.123471,0.003987,-0.005415,-0.000371,0.000591,0.003386
0001547131030002727,0001547131029940223,0.129217,0.004373,-0.006342,-0.000235,0.000123,0.003499
0001547131030065229,0001547131030002727,0.139357,0.004341,-0.006163,0.000166,-0.000058,0.003664
0001547131030127700,0001547131030065229,0.142270,0.005886,-0.007502,-0.000349,-0.000043,0.003872
0001547131030190205,0001547131030127700,0.150311,0.004485,-0.007808,-0.000799,0.000079,0.004137
0001547131030252708,0001547131030190205,0.157194,0.005864,-0.007297,0.000743,0.000327,0.004096
0001547131030315211,0001547131030252708,0.164950,0.006855,-0.007514,0.001698,0.000586,0.003971
0001547131030377714,0001547131030315211,0.171715,0.007839,-0.007661,0.001559,0.000471,0.003758
0001547131030440218,0001547131030377714,0.179387,0.009260,-0.007923,0.001789,0.000942,0.003913
0001547131030502721,0001547131030440218,0.183924,0.008094,-0.008134,0.000568,0.001446,0.004552
0001547131030565224,0001547131030502721,0.191039,0.005108,-0.007331,-0.001067,0.001147,0.005297
0001547131030627728,0001547131030565224,0.198722,0.003689,-0.007647,-0.000666,0.000571,0.005529
0001547131030690232,0001547131030627728,0.205622,0.003963,-0.008112,-0.000617,-0.000651,0.004516
0001547131030752735,0001547131030690232,0.213580,0.004661,-0.008458,-0.000491,-0.001769,0.004091
0001547131030815238,0001547131030752735,0.220502,0.006309,-0.009698,0.000087,-0.001396,0.004282
0001547131030877742,0001547131030815238,0.226607,0.009425,-0.011398,0.002691,-0.000602,0.004485
0001547131030940249,0001547131030877742,0.238253,0.009280,-0.009951,0.002924,-0.000756,0.004731
0001547131031002748,0001547131030940249,0.247614,0.008481,-0.010457,0.002282,-0.000579,0.003911
0001547131031065251,0001547131031002748,0.251157,0.005889,-0.013348,0.002172,0.000416,0.002833
0001547131031127755,0001547131031065251,0.257419,0.005667,-0.013459,0.001931,0.001248,0.001892
0001547131031190259,0001547131031127755,0.266379,0.000659,-0.013641,0.000037,0.001305,0.001892
0001547131031252729,0001547131031190259,0.273753,0.000282,-0.013373,-0.000918,0.000575,0.002164
0001547131031315232,0001547131031252729,0.284779,-0.001543,-0.012772,-0.001959,-0.000373,0.002546
0001547131031377736,0001547131031315232,0.296873,-0.003283,-0.012229,-0.001139,-0.000383,0.002371
0001547131031440239,0001547131031377736,0.300608,0.000052,-0.013572,0.000132,0.000827,0.001406
0001547131031502743,0001547131031440239,0.308142,-0.000634,-0.013175,0.000228,0.001360,0.000971
0001547131031565246,0001547131031502743,0.314259,0.001545,-0.013104,0.001807,0.001208,0.000514
0001547131031627750,0001547131031565246,0.327741,0.000520,-0.011585,0.003520,0.000077,0.000113
0001547131031690253,0001547131031627750,0.338303,0.001126,-0.013946,0.003327,-0.000864,-0.000149
0001547131031752756,0001547131031690253,0.347519,-0.002931,-0.013517,0.000775,-0.001300,0.000280
0001547131031815260,0001547131031752756,0.356919,-0.004214,-0.016010,0.000453,-0.000900,0.000419
0001547131031877763,0001547131031815260,0.354446,-0.003963,-0.019047,-0.000152,0.000363,0.000214
0001547131031940266,0001547131031877763,0.367965,-0.006440,-0.019031,-0.000717,0.001102,-0.000190
0001547131032002770,0001547131031940266,0.372244,-0.005750,-0.018403,-0.001416,0.000929,-0.000550
0001547131032065273,0001547131032002770,0.377042,-0.008809,-0.018079,-0.003217,0.001105,-0.000699
0001547131032127777,0001547131032065273,0.390030,-0.005207,-0.016904,-0.000442,0.001370,-0.000742
0001547131032190281,0001547131032127777,0.394887,-0.005517,-0.016988,-0.000378,0.000802,-0.000787
0001547131032252783,0001547131032190281,0.401411,-0.004872,-0.016980,-0.000625,0.000301,-0.001130
0001547131032315287,0001547131032252783,0.409436,-0.003773,-0.017746,0.000740,0.000140,-0.001544
0001547131032377758,0001547131032315287,0.415964,-0.003960,-0.018819,0.000692,0.000054,-0.001522
0001547131032440261,0001547131032377758,0.420643,-0.001974,-0.018669,0.001446,-0.000681,-0.001214
0001547131032502765,0001547131032440261,0.434567,-0.005459,-0.018668,-0.000482,-0.001443,-0.000615
0001547131032565270,0001547131032502765,0.439422,-0.008301,-0.017560,-0.001062,-0.001755,-0.000686
0001547131032627771,0001547131032565270,0.450905,-0.008523,-0.017677,-0.001548,-0.001788,-0.001132
0001547131032690274,0001547131032627771,0.451535,-0.010151,-0.017913,-0.002364,-0.000993,-0.001201
0001547131032752778,0001547131032690274,0.456721,-0.009264,-0.021044,-0.001558,-0.000562,-0.001263
0001547131032815282,0001547131032752778,0.463703,-0.008494,-0.021084,0.000130,-0.000225,-0.001664
0001547131032877784,0001547131032815282,0.472502,-0.009318,-0.024214,0.000742,0.000154,-0.001897
0001547131032940289,0001547131032877784,0.485937,-0.010240,-0.023926,0.000635,0.001782,-0.001678
0001547131033002792,0001547131032940289,0.475137,-0.004021,-0.024808,0.002718,0.003414,-0.001563
0001547131033065297,0001547131033002792,0.481990,-0.004615,-0.024118,0.002244,0.002934,-0.001552
0001547131033127799,0001547131033065297,0.494566,-0.007710,-0.020440,0.000589,0.001005,-0.001761
0001547131033190303,0001547131033127799,0.501727,-0.007755,-0.020025,-0.000426,0.000057,-0.001935
0001547131033252805,0001547131033190303,0.501878,-0.006097,-0.021212,0.001061,-0.000582,-0.001837
0001547131033315309,0001547131033252805,0.509495,-0.007135,-0.023111,0.000121,-0.001222,-0.001864
0001547131033377817,0001547131033315309,0.512510,-0.007854,-0.026062,-0.000218,-0.000879,-0.001845
0001547131033440315,0001547131033377817,0.516780,-0.009909,-0.028680,-0.001734,-0.000030,-0.001742
0001547131033502787,0001547131033440315,0.543838,-0.009269,-0.028681,0.000715,0.000545,-0.001666
0001547131033565292,0001547131033502787,0.532636,-0.007669,-0.027376,0.000478,0.000827,-0.001298
0001547131033627794,0001547131033565292,0.538241,-0.006004,-0.024436,-0.000817,-0.000094,-0.000971
0001547131033690299,0001547131033627794,0.545198,-0.003663,-0.023264,0.001930,-0.001257,-0.000215
0001547131033752801,0001547131033690299,0.543496,-0.003771,-0.025573,0.001516,-0.001528,0.000427
0001547131033815304,0001547131033752801,0.548024,-0.001583,-0.029158,0.000731,-0.000689,0.000204
0001547131033877807,0001547131033815304,0.549820,-0.004668,-0.029026,-0.001215,-0.000983,-0.000202
0001547131033940311,0001547131033877807,0.563685,-0.005278,-0.026368,-0.000796,-0.000537,-0.000329
0001547131034002814,0001547131033940311,0.560656,-0.004302,-0.028425,-0.000355,0.000075,-0.000761
0001547131034065318,0001547131034002814,0.569931,-0.002990,-0.031377,0.002006,0.000556,-0.000861
0001547131034127821,0001547131034065318,0.566521,-0.000150,-0.027160,0.000879,-0.001250,-0.000784
0001547131034190324,0001547131034127821,0.580028,-0.006262,-0.025242,-0.000740,-0.002067,-0.000385
0001547131034252828,0001547131034190324,0.581026,-0.004000,-0.026713,0.001560,-0.001063,-0.000328
0001547131034315331,0001547131034252828,0.597848,-0.006629,-0.027565,-0.000285,-0.001484,-0.000616
0001547131034377835,0001547131034315331,0.593583,-0.004796,-0.027506,0.000573,-0.002183,-0.000932
0001547131034440339,0001547131034377835,0.600069,-0.005046,-0.028263,0.002405,-0.001062,-0.000988
0001547131034502842,0001547131034440339,0.601970,-0.004425,-0.030891,0.001586,0.001407,-0.000925
0001547131034565312,0001547131034502842,0.609078,-0.004665,-0.031025,0.000935,0.001390,-0.001177
0001547131034627815,0001547131034565312,0.606104,-0.007209,-0.031697,0.000974,0.001423,-0.001020
0001547131034690320,0001547131034627815,0.601362,-0.003645,-0.030257,0.001583,0.000747,-0.001269
0001547131034752824,0001547131034690320,0.606330,-0.000330,-0.027235,0.002450,-0.000562,-0.001484
0001547131034815326,0001547131034752824,0.620926,-0.004425,-0.028018,0.001130,-0.002328,-0.001199
0001547131034877830,0001547131034815326,0.625904,-0.007176,-0.028722,-0.000638,-0.001906,-0.001037
0001547131034940332,0001547131034877830,0.619992,-0.007652,-0.031461,-0.001926,-0.000338,-0.001022
0001547131035002836,0001547131034940332,0.613210,-0.008007,-0.033137,-0.001284,0.000391,-0.000880
0001547131035065340,0001547131035002836,0.615480,-0.007063,-0.031934,-0.000274,0.000557,-0.001040
0001547131035127842,0001547131035065340,0.616712,-0.004581,-0.031537,-0.000127,0.000162,-0.001222
0001547131035190346,0001547131035127842,0.620379,-0.005041,-0.030544,-0.001122,-0.000429,-0.000876
0001547131035252850,0001547131035190346,0.627303,-0.005187,-0.030074,-0.000416,-0.001288,-0.000735
0001547131035315353,0001547131035252850,0.625740,-0.005972,-0.030870,0.000390,-0.001799,-0.000908
0001547131035377857,0001547131035315353,0.629137,-0.006870,-0.029730,-0.001180,-0.001559,-0.001041
0001547131035440360,0001547131035377857,0.626260,-0.005675,-0.034200,0.000319,-0.001046,-0.001125
0001547131035502863,0001547131035440360,0.627267,-0.003983,-0.033632,0.000198,-0.001210,-0.001021
0001547131035565366,0001547131035502863,0.627770,-0.006969,-0.033719,-0.000708,-0.001002,-0.000875
0001547131035627870,0001547131035565366,0.628777,-0.006589,-0.033420,-0.000431,0.000102,-0.000665
0001547131035690340,0001547131035627870,0.633860,-0.006611,-0.033032,-0.001169,-0.000094,-0.000575
0001547131035752844,0001547131035690340,0.634461,-0.005240,-0.033279,-0.000924,-0.000402,-0.000646
0001547131035815348,0001547131035752844,0.632198,-0.002730,-0.032727,0.001464,0.000031,-0.000492
0001547131035877853,0001547131035815348,0.642005,-0.004839,-0.033636,0.001670,0.000201,-0.000340
0001547131035940354,0001547131035877853,0.648067,-0.008247,-0.033116,-0.000852,0.000739,-0.000238
0001547131036002859,0001547131035940354,0.645150,-0.007832,-0.034626,-0.003167,0.001077,-0.000041
0001547131036065361,0001547131036002859,0.641400,-0.009129,-0.033638,-0.001015,0.001636,-0.000167
0001547131036127864,0001547131036065361,0.662251,-0.010477,-0.031915,-0.000755,0.001204,-0.000521
0001547131036190368,0001547131036127864,0.642113,-0.001750,-0.032129,0.000590,-0.000878,-0.000714
0001547131036252871,0001547131036190368,0.648128,0.000109,-0.031578,-0.000031,-0.001700,-0.000657
0001547131036315374,0001547131036252871,0.647641,-0.003366,-0.033485,-0.000279,-0.001432,-0.000470
0001547131036377884,0001547131036315374,0.653173,-0.003939,-0.034330,-0.000265,-0.000820,-0.000199
0001547131036440381,0001547131036377884,0.650172,-0.002687,-0.037314,0.000663,0.000762,-0.000381
0001547131036502885,0001547131036440381,0.650294,-0.002348,-0.035681,0.000876,0.001336,-0.000498
0001547131036565388,0001547131036502885,0.651898,-0.000047,-0.031434,0.001839,-0.000107,-0.000467
0001547131036627891,0001547131036565388,0.652956,-0.000914,-0.031674,0.001576,-0.001321,-0.000432
0001547131036690395,0001547131036627891,0.652066,-0.004246,-0.032829,-0.000200,-0.002351,-0.000207
0001547131036752898,0001547131036690395,0.644376,-0.005761,-0.036507,-0.001515,-0.002482,-0.000146
0001547131036815402,0001547131036752898,0.638586,0.000229,-0.037433,-0.000172,-0.000844,-0.000784
0001547131036877874,0001547131036815402,0.638073,-0.004954,-0.038009,-0.000244,0.000547,-0.000602
0001547131036940377,0001547131036877874,0.637736,-0.005773,-0.038670,-0.000109,0.001769,-0.000306
0001547131037002880,0001547131036940377,0.638091,-0.003404,-0.038186,0.000544,0.002329,-0.000123
0001547131037065383,0001547131037002880,0.628168,-0.002616,-0.036181,-0.000025,0.001472,-0.000010
0001547131037127887,0001547131037065383,0.651504,-0.015668,-0.030408,0.000180,-0.000088,0.000187
0001547131037190390,0001547131037127887,0.649210,-0.007029,-0.030643,0.000814,-0.001212,-0.000124
0001547131037252893,0001547131037190390,0.645603,-0.002583,-0.033356,-0.001323,-0.001815,-0.000468
0001547131037315397,0001547131037252893,0.643370,-0.004514,-0.034414,-0.000844,-0.002472,-0.000229
0001547131037377900,0001547131037315397,0.634914,-0.004037,-0.033953,0.000173,-0.000934,0.000037
0001547131037440404,0001547131037377900,0.631357,-0.004345,-0.035671,0.000267,0.000293,-0.000127
0001547131037502908,0001547131037440404,0.639503,-0.001126,-0.034528,-0.001172,0.000608,0.000153
0001547131037565410,0001547131037502908,0.629591,-0.003394,-0.036073,0.000028,0.001704,0.000395
0001547131037627914,0001547131037565410,0.622457,0.000269,-0.034311,0.001598,0.001945,0.000015
0001547131037690417,0001547131037627914,0.636764,-0.001519,-0.032857,-0.000198,0.001562,-0.000050
0001547131037752921,0001547131037690417,0.626876,-0.004197,-0.033556,-0.000060,0.001121,0.000149
0001547131037815424,0001547131037752921,0.634033,-0.002268,-0.033157,0.000050,0.000324,-0.000010
0001547131037877928,0001547131037815424,0.627037,-0.001596,-0.035390,0.000198,0.000316,-0.000152
0001547131037940398,0001547131037877928,0.636777,-0.000572,-0.033161,-0.000337,0.000055,-0.000381
0001547131038002902,0001547131037940398,0.631165,-0.003157,-0.033930,-0.000841,-0.000635,-0.000298
0001547131038065405,0001547131038002902,0.633216,0.000534,-0.033030,0.000655,-0.000519,-0.000255
0001547131038127909,0001547131038065405,0.621539,-0.000927,-0.037772,0.001735,0.000681,-0.000070
0001547131038190412,0001547131038127909,0.621109,0.003105,-0.037646,0.003765,0.001125,-0.000328
0001547131038252916,0001547131038190412,0.640566,0.001206,-0.032311,0.002038,0.000487,-0.000010
0001547131038315419,0001547131038252916,0.635447,-0.000884,-0.030402,-0.002013,-0.001523,0.000039
0001547131038377923,0001547131038315419,0.642178,-0.003504,-0.028025,-0.001915,-0.003543,0.000116
0001547131038440426,0001547131038377923,0.631627,-0.003167,-0.031814,-0.000615,-0.004532,-0.000226
0001547131038502929,0001547131038440426,0.635470,0.001384,-0.034431,0.001041,-0.003131,-0.000719
0001547131038565433,0001547131038502929,0.635730,0.000932,-0.037214,0.000003,-0.001546,-0.000300
0001547131038627936,0001547131038565433,0.631590,0.002724,-0.035949,0.001290,0.000106,0.000098
0001547131038690440,0001547131038627936,0.630606,0.000036,-0.035559,0.000567,0.002542,0.000400
0001547131038752943,0001547131038690440,0.628807,-0.004910,-0.035478,-0.003177,0.002463,0.000326
0001547131038815446,0001547131038752943,0.631178,-0.003957,-0.034279,-0.003624,0.001306,0.000329
0001547131038877949,0001547131038815446,0.633844,-0.005551,-0.034213,-0.003143,0.002109,-0.000102
0001547131038940453,0001547131038877949,0.641433,-0.004228,-0.034737,-0.002074,0.000060,-0.000803
0001547131039002958,0001547131038940453,0.640565,-0.005094,-0.031873,-0.003840,-0.002213,-0.000114
0001547131039065427,0001547131039002958,0.638639,-0.003958,-0.033604,-0.001498,-0.002570,0.000101
0001547131039127930,0001547131039065427,0.637887,-0.003626,-0.036956,-0.000330,-0.001858,0.000540
0001547131039190434,0001547131039127930,0.633019,-0.000678,-0.040746,0.001616,0.000891,0.000683
0001547131039252937,0001547131039190434,0.639388,-0.001830,-0.042280,0.000150,0.003578,0.000231
0001547131039315440,0001547131039252937,0.635190,-0.006218,-0.037498,-0.000601,0.004717,0.000315
0001547131039377943,0001547131039315440,0.624195,-0.005165,-0.033908,-0.002016,0.001864,-0.000065
0001547131039440447,0001547131039377943,0.634995,-0.006067,-0.029057,-0.003000,-0.002154,-0.000661
0001547131039502951,0001547131039440447,0.629850,-0.002411,-0.031121,-0.000520,-0.004522,-0.000873
0001547131039565454,0001547131039502951,0.630515,0.000395,-0.033588,0.001571,-0.004451,-0.000516
0001547131039627957,0001547131039565454,0.634744,-0.002558,-0.035239,-0.000822,-0.002924,-0.000211
0001547131039690461,0001547131039627957,0.629803,-0.003590,-0.037812,-0.000758,-0.000183,-0.000279
0001547131039752965,0001547131039690461,0.630887,0.000762,-0.037534,0.002540,0.001785,-0.001014
0001547131039815468,0001547131039752965,0.627391,0.001521,-0.038287,0.004349,0.003807,-0.001381
0001547131039877971,0001547131039815468,0.632894,-0.000684,-0.034101,0.001081,0.003513,-0.001160
0001547131039940475,0001547131039877971,0.658073,-0.006846,-0.036859,0.000673,0.001730,-0.000734
0001547131040002979,0001547131039940475,0.650360,-0.002945,-0.034565,0.002943,0.000423,-0.001028
0001547131040065481,0001547131040002979,0.640093,0.000750,-0.033072,0.002429,-0.002941,-0.001419
0001547131040127985,0001547131040065481,0.641951,-0.001995,-0.032428,-0.000543,-0.004414,-0.001426
0001547131040190456,0001547131040127985,0.643333,-0.004574,-0.032933,-0.000918,-0.003327,-0.001311
0001547131040252959,0001547131040190456,0.640318,-0.004729,-0.036717,0.000666,-0.003153,-0.000882
0001547131040315463,0001547131040252959,0.637943,-0.004264,-0.036709,-0.000198,-0.001021,-0.000743
0001547131040377967,0001547131040315463,0.633551,-0.004097,-0.037673,-0.001226,0.001073,-0.000805
0001547131040440474,0001547131040377967,0.633349,-0.003850,-0.037618,-0.000546,0.002287,-0.000705
0001547131040502977,0001547131040440474,0.627909,-0.006863,-0.035382,-0.001936,0.002108,-0.000086
0001547131040565477,0001547131040502977,0.627232,-0.003472,-0.035042,-0.001749,0.001668,-0.000049
0001547131040627980,0001547131040565477,0.633159,-0.001377,-0.035660,-0.001551,0.002077,0.000236
0001547131040690484,0001547131040627980,0.628754,0.000816,-0.035975,-0.000840,0.001544,0.000399
0001547131040752987,0001547131040690484,0.628488,0.000959,-0.036861,0.000685,0.001337,0.000521
0001547131040815491,0001547131040752987,0.651231,0.003713,-0.033883,-0.000260,0.001239,0.000483
0001547131040877993,0001547131040815491,0.627136,0.002373,-0.033591,-0.000328,0.000238,0.000703
0001547131040940497,0001547131040877993,0.639381,0.000903,-0.034622,0.000592,-0.000084,0.001095
0001547131041003001,0001547131040940497,0.638031,-0.000265,-0.035475,-0.001305,0.000106,0.001107
0001547131041065504,0001547131041003001,0.644453,-0.003251,-0.036124,-0.002776,0.001265,0.001395
0001547131041128007,0001547131041065504,0.646956,-0.003954,-0.036556,-0.003513,0.002701,0.001766
0001547131041190511,0001547131041128007,0.626341,-0.001623,-0.036767,-0.000813,0.002408,0.001895
0001547131041253014,0001547131041190511,0.652324,0.002203,-0.036633,0.000442,0.001600,0.001604
0001547131041315485,0001547131041253014,0.655329,0.002467,-0.030646,0.000964,-0.001332,0.001655
0001547131041377990,0001547131041315485,0.649341,0.003568,-0.027886,0.002143,-0.004336,0.001555
0001547131041440491,0001547131041377990,0.647205,0.002110,-0.030322,0.001442,-0.005611,0.001378
0001547131041502996,0001547131041440491,0.649625,0.001888,-0.033751,0.002408,-0.005032,0.001084
0001547131041565502,0001547131041502996,0.644739,0.004370,-0.036959,0.003243,-0.001537,0.000784
0001547131041628001,0001547131041565502,0.637829,0.003862,-0.040063,0.003625,0.003224,0.000647
0001547131041690505,0001547131041628001,0.644911,0.005406,-0.037576,0.002701,0.005777,0.000954
0001547131041753008,0001547131041690505,0.640585,0.005289,-0.035649,0.002902,0.005884,0.001134
0001547131041815512,0001547131041753008,0.650322,0.000902,-0.029389,0.001035,0.003401,0.001395
0001547131041878015,0001547131041815512,0.651866,0.001263,-0.029667,0.000182,-0.000410,0.001218
0001547131041940518,0001547131041878015,0.657019,0.000531,-0.029535,0.000017,-0.002216,0.001093
0001547131042003023,0001547131041940518,0.652777,0.000116,-0.029849,-0.000446,-0.004565,0.000882
0001547131042065526,0001547131042003023,0.666458,-0.000428,-0.032880,-0.001079,-0.004127,0.000879
0001547131042128029,0001547131042065526,0.663350,-0.001478,-0.035163,-0.000560,-0.002483,0.000909
0001547131042190532,0001547131042128029,0.661276,-0.002608,-0.035908,-0.000337,-0.000672,0.000803
0001547131042253035,0001547131042190532,0.657566,-0.001706,-0.037792,-0.001395,0.001926,0.000914
0001547131042315541,0001547131042253035,0.655925,-0.002511,-0.036273,-0.001229,0.003282,0.000960
0001547131042378043,0001547131042315541,0.666291,-0.006006,-0.033991,-0.002224,0.003879,0.000816
0001547131042440513,0001547131042378043,0.659657,-0.001605,-0.036612,-0.001762,0.003540,0.000515
0001547131042503017,0001547131042440513,0.663056,-0.002176,-0.032336,0.001059,0.002495,0.000436
0001547131042565521,0001547131042503017,0.670964,0.006644,-0.034108,0.002726,0.000441,0.000243
0001547131042628023,0001547131042565521,0.681856,-0.002524,-0.029192,0.001158,-0.002227,0.000578
0001547131042690526,0001547131042628023,0.673125,-0.000341,-0.030810,0.001480,-0.004159,0.000872
0001547131042753030,0001547131042690526,0.671950,0.000457,-0.033929,0.001424,-0.004178,0.000538
0001547131042815533,0001547131042753030,0.668991,0.000284,-0.037257,0.002213,-0.002873,0.000328
0001547131042878037,0001547131042815533,0.669944,0.001742,-0.036989,0.001974,-0.000537,0.000072
0001547131042940541,0001547131042878037,0.666832,0.000792,-0.037094,0.001651,0.000650,0.000153
0001547131043003046,0001547131042940541,0.676223,-0.006345,-0.033552,0.000852,0.000732,0.000628
0001547131043065547,0001547131043003046,0.675542,-0.002004,-0.034895,0.001194,0.000709,0.000550
0001547131043128050,0001547131043065547,0.667705,-0.000165,-0.033890,0.000649,0.000426,0.000518
0001547131043190554,0001547131043128050,0.675209,-0.004139,-0.034971,-0.000249,0.000056,0.000531
0001547131043253058,0001547131043190554,0.682256,-0.006805,-0.031747,0.000707,0.000654,0.000393
0001547131043315560,0001547131043253058,0.671501,-0.003223,-0.032608,0.000320,0.000189,0.000193
0001547131043378064,0001547131043315560,0.680912,-0.005195,-0.034293,0.001809,0.000387,-0.000036
0001547131043440567,0001547131043378064,0.673211,0.000210,-0.034655,0.001828,0.001034,-0.000056
0001547131043503071,0001547131043440567,0.675736,-0.003613,-0.036211,0.001113,0.000778,0.000147
0001547131043565543,0001547131043503071,0.677999,-0.003673,-0.036893,0.000181,0.001250,0.000233
0001547131043628045,0001547131043565543,0.671163,-0.000633,-0.038145,0.001872,0.001879,0.000148
0001547131043690550,0001547131043628045,0.666150,0.002544,-0.037271,0.001923,0.002574,-0.000199
0001547131043753052,0001547131043690550,0.667839,0.000110,-0.037285,0.002495,0.003360,-0.000073
0001547131043815557,0001547131043753052,0.666891,0.007198,-0.038829,0.004347,0.003335,-0.000228
0001547131043878060,0001547131043815557,0.672167,-0.001504,-0.035233,0.001571,0.001580,-0.000083
0001547131043940564,0001547131043878060,0.670065,0.001309,-0.032937,0.000267,-0.001073,-0.000110
0001547131044003067,0001547131043940564,0.680715,-0.006686,-0.031125,-0.000276,-0.003915,-0.000061
0001547131044065569,0001547131044003067,0.679603,-0.005740,-0.030267,-0.000023,-0.005890,-0.000458
0001547131044128073,0001547131044065569,0.676235,-0.006755,-0.033572,-0.003838,-0.006115,-0.000398
0001547131044190576,0001547131044128073,0.679621,-0.007621,-0.037269,-0.003252,-0.004424,-0.000186
0001547131044253080,0001547131044190576,0.669616,-0.005156,-0.039886,-0.002350,-0.001222,-0.000150
0001547131044315584,0001547131044253080,0.670060,-0.005385,-0.041688,-0.000647,0.002286,-0.000102
0001547131044378087,0001547131044315584,0.663110,-0.002422,-0.039177,0.000154,0.004560,-0.000068
0001547131044440590,0001547131044378087,0.667241,-0.004072,-0.037113,-0.000976,0.004360,-0.000126
0001547131044503095,0001547131044440590,0.667779,-0.001317,-0.032880,-0.001095,0.002490,-0.000241
0001547131044565599,0001547131044503095,0.673159,-0.003447,-0.031608,0.000145,0.000140,-0.000287
0001547131044628100,0001547131044565599,0.668456,-0.002261,-0.034313,0.000928,-0.001135,-0.000491
0001547131044690571,0001547131044628100,0.668126,0.003777,-0.038262,0.000836,-0.000794,-0.000656
0001547131044753074,0001547131044690571,0.667381,0.004888,-0.037382,0.001488,-0.000020,-0.000459
0001547131044815578,0001547131044753074,0.675028,0.000032,-0.035732,0.001308,0.000085,-0.000248
0001547131044878084,0001547131044815578,0.677694,0.000283,-0.034702,0.000728,-0.000116,-0.000227
0001547131044940585,0001547131044878084,0.674349,-0.000361,-0.036343,0.000984,-0.000403,-0.000212
0001547131045003089,0001547131044940585,0.677289,0.002859,-0.036564,0.000224,-0.000156,-0.000576
0001547131045065592,0001547131045003089,0.670123,-0.000552,-0.035822,0.000722,0.000269,-0.000379
0001547131045128095,0001547131045065592,0.671980,0.004337,-0.036035,0.002565,-0.000069,-0.000560
0001547131045190598,0001547131045128095,0.668967,0.002623,-0.034161,0.002291,-0.001007,-0.000991
0001547131045253102,0001547131045190598,0.672411,0.002442,-0.033820,0.001149,-0.002027,-0.001305
0001547131045315605,0001547131045253102,0.672342,0.002826,-0.036295,0.000921,-0.001608,-0.001215
0001547131045378108,0001547131045315605,0.665629,0.001886,-0.036919,0.001520,-0.001071,-0.000975
0001547131045440612,0001547131045378108,0.661392,0.001499,-0.039733,-0.000264,0.000319,-0.000866
0001547131045503115,0001547131045440612,0.657059,0.001821,-0.038548,0.000164,0.001716,-0.000949
0001547131045565619,0001547131045503115,0.652984,-0.002018,-0.035653,-0.000250,0.001401,-0.000840
0001547131045628122,0001547131045565619,0.660869,0.000952,-0.036570,-0.000294,0.000270,-0.000904
0001547131045690626,0001547131045628122,0.658625,-0.003441,-0.034107,-0.000573,-0.000801,-0.000656
0001547131045753128,0001547131045690626,0.657492,-0.006728,-0.035506,-0.001300,-0.001272,-0.000616
0001547131045815599,0001547131045753128,0.644000,-0.004050,-0.037517,-0.001205,-0.001123,-0.000643
0001547131045878103,0001547131045815599,0.648052,-0.005511,-0.034941,-0.000454,-0.000366,-0.000817
0001547131045940606,0001547131045878103,0.642165,-0.004925,-0.033482,0.000069,-0.000085,-0.001316
0001547131046003111,0001547131045940606,0.650046,-0.000016,-0.042526,-0.001402,-0.000599,-0.001811
0001547131046065613,0001547131046003111,0.634687,-0.000840,-0.034499,-0.000738,-0.001074,-0.002241
0001547131046128116,0001547131046065613,0.655207,-0.008675,-0.040197,-0.000504,-0.001323,-0.002619
0001547131046190620,0001547131046128116,0.635508,-0.003356,-0.035288,0.000059,-0.001263,-0.002995
0001547131046253123,0001547131046190620,0.628933,-0.003337,-0.033647,0.000425,-0.001350,-0.003034
0001547131046315627,0001547131046253123,0.633366,-0.000846,-0.035269,0.000602,-0.001094,-0.003187
0001547131046378130,0001547131046315627,0.623618,-0.000545,-0.032403,-0.000680,-0.000894,-0.003232
0001547131046440638,0001547131046378130,0.608856,-0.004224,-0.034902,-0.000790,-0.000716,-0.003073
0001547131046503137,0001547131046440638,0.613661,-0.005870,-0.038513,-0.000426,-0.000287,-0.003091
0001547131046565641,0001547131046503137,0.609880,-0.005063,-0.037923,-0.000198,0.000010,-0.003248
0001547131046628144,0001547131046565641,0.595749,-0.006257,-0.035843,0.000717,0.000672,-0.003060
0001547131046690647,0001547131046628144,0.595049,-0.002465,-0.038666,0.001444,0.001795,-0.003025
0001547131046753150,0001547131046690647,0.586232,-0.000258,-0.037276,0.001670,0.001879,-0.003016
0001547131046815654,0001547131046753150,0.569040,-0.000816,-0.034570,0.000748,0.001425,-0.002855
0001547131046878125,0001547131046815654,0.573252,-0.001852,-0.033180,0.000898,0.000915,-0.002725
0001547131046940629,0001547131046878125,0.571932,-0.000893,-0.030516,0.001284,0.000163,-0.002795
0001547131047003133,0001547131046940629,0.560894,-0.002245,-0.031578,0.000236,-0.000338,-0.002730
0001547131047065636,0001547131047003133,0.557880,-0.004292,-0.031331,-0.000298,-0.000066,-0.002597
0001547131047128139,0001547131047065636,0.558836,-0.006240,-0.038583,-0.000556,0.000185,-0.002438
0001547131047190643,0001547131047128139,0.548881,-0.006023,-0.032532,-0.000601,0.000168,-0.002560
0001547131047253146,0001547131047190643,0.550980,-0.005442,-0.035668,-0.000797,0.000032,-0.002540
0001547131047315649,0001547131047253146,0.542801,-0.004494,-0.031942,-0.000447,-0.000184,-0.002170
0001547131047378152,0001547131047315649,0.534057,-0.001821,-0.030925,0.000024,0.000019,-0.001706
0001547131047440656,0001547131047378152,0.530940,-0.005918,-0.032871,-0.001522,0.000371,-0.001202
0001547131047503160,0001547131047440656,0.528414,-0.006321,-0.035231,-0.003103,0.001073,-0.000964
0001547131047565663,0001547131047503160,0.523702,-0.005659,-0.032361,-0.001546,0.000806,-0.001108
0001547131047628167,0001547131047565663,0.517035,-0.001687,-0.030453,0.000357,0.000125,-0.001453
0001547131047690670,0001547131047628167,0.515340,-0.003740,-0.030139,0.000058,-0.000492,-0.001632
0001547131047753173,0001547131047690670,0.509157,-0.001635,-0.029380,-0.000251,-0.001256,-0.001580
0001547131047815677,0001547131047753173,0.507729,-0.001911,-0.031245,-0.000258,-0.001784,-0.001154
0001547131047878179,0001547131047815677,0.498512,-0.003539,-0.029645,0.000270,-0.001245,-0.000992
0001547131047940684,0001547131047878179,0.494169,-0.003413,-0.030605,-0.000107,-0.000525,-0.001272
0001547131048003155,0001547131047940684,0.482718,-0.002131,-0.028934,-0.000651,-0.000295,-0.001456
0001547131048065658,0001547131048003155,0.478044,-0.003216,-0.029761,-0.000468,-0.000217,-0.001310
0001547131048128160,0001547131048065658,0.473142,-0.003788,-0.027704,-0.000019,0.000258,-0.001072
0001547131048190664,0001547131048128160,0.465922,-0.003748,-0.026772,-0.000625,-0.000383,-0.000780
0001547131048253167,0001547131048190664,0.459799,-0.005494,-0.026930,-0.001183,-0.000624,-0.000471
0001547131048315671,0001547131048253167,0.457148,-0.001915,-0.027456,-0.000737,-0.000285,-0.000472
0001547131048378174,0001547131048315671,0.450550,-0.000019,-0.027320,0.000138,0.000319,-0.000223
0001547131048440678,0001547131048378174,0.447403,-0.001692,-0.025939,0.000050,0.000582,0.000241
0001547131048503181,0001547131048440678,0.437103,-0.001174,-0.028054,-0.000915,0.000048,0.001068
0001547131048565684,0001547131048503181,0.435839,-0.001124,-0.024465,-0.001229,-0.000353,0.001909
0001547131048628187,0001547131048565684,0.424141,0.003247,-0.026413,0.002316,0.000513,0.002270
0001547131048690691,0001547131048628187,0.418925,0.006971,-0.023843,0.003275,0.000659,0.002281
0001547131048753195,0001547131048690691,0.414343,0.005205,-0.024891,0.001798,0.000080,0.002054
0001547131048815698,0001547131048753195,0.409717,0.005962,-0.026863,0.001867,-0.000194,0.001953
0001547131048878206,0001547131048815698,0.407032,0.004095,-0.024737,0.002324,-0.000354,0.002032
0001547131048940705,0001547131048878206,0.394582,0.004987,-0.025867,0.002854,0.000921,0.002171
0001547131049003209,0001547131048940705,0.390708,0.005048,-0.023669,0.002111,0.001517,0.001869
